[{"city":"bangkok","cdn":[{"name":"CacheFly","code":["bkk"]}],"coordinates":[100.5018,13.7563]},{"city":"doha","cdn":[{"name":"CacheFly","code":["DOH"]}],"coordinates":[51.531,25.2854]},{"city":"dubai","cdn":[{"name":"CacheFly","code":["dxb"]}],"coordinates":[55.2708,25.2048]},{"city":"hong kong","cdn":[{"name":"CacheFly","code":["hkg"]}],"coordinates":[114.1694,22.3193]},{"city":"istanbul","cdn":[{"name":"CacheFly","code":["ist"]}],"coordinates":[28.9784,41.0082]},{"city":"jakarta","cdn":[{"name":"CacheFly","code":["cgk"]}],"coordinates":[106.8456,-6.2088]},{"city":"mumbai","cdn":[{"name":"CacheFly","code":["bom"]}],"coordinates":[72.8777,19.076]},{"city":"riyadh","cdn":[{"name":"CacheFly","code":["ruh"]}],"coordinates":[46.6753,24.7136]},{"city":"seoul","cdn":[{"name":"CacheFly","code":["icn"]}],"coordinates":[126.978,37.5665]},{"city":"singapore","cdn":[{"name":"CacheFly","code":["sin"]}],"coordinates":[103.8198,1.3521]},{"city":"tel aviv","cdn":[{"name":"CacheFly","code":["tlv"]}],"coordinates":[34.7818,32.0853]},{"city":"tokyo","cdn":[{"name":"CacheFly","code":["tko"]}],"coordinates":[139.6503,35.6762]}]