[{"city":"amsterdam","cdn":[{"name":"CacheFly","code":["ams"]}],"coordinates":[4.9041,52.3676],"size":14},{"city":"frankfurt","cdn":[{"name":"CacheFly","code":["fra"]}],"coordinates":[8.6821,50.1109],"size":14},{"city":"london","cdn":[{"name":"CacheFly","code":["lon"]}],"coordinates":[-0.1276,51.5072],"size":14},{"city":"paris","cdn":[{"name":"CacheFly","code":["cdg"]}],"coordinates":[2.3522,48.8566],"size":13},{"city":"milan","cdn":[{"name":"CacheFly","code":["mxp"]}],"coordinates":[9.19,45.4642],"size":12},{"city":"madrid","cdn":[{"name":"CacheFly","code":["mad"]}],"coordinates":[-3.7038,40.4168],"size":11},{"city":"stockholm","cdn":[{"name":"CacheFly","code":["arn"]}],"coordinates":[18.0686,59.3293],"size":11},{"city":"warsaw","cdn":[{"name":"CacheFly","code":["waw"]}],"coordinates":[21.0122,52.2297],"size":10},{"city":"vienna","cdn":[{"name":"CacheFly","code":["vie"]}],"coordinates":[16.3738,48.2082],"size":9},{"city":"bucharest","cdn":[{"name":"CacheFly","code":["otp"]}],"coordinates":[26.1025,44.4268],"size":8},{"city":"sofia","cdn":[{"name":"CacheFly","code":["sof"]}],"coordinates":[23.3219,42.6977],"size":8},{"city":"helsinki","cdn":[{"name":"CacheFly","code":["hel"]}],"coordinates":[24.9384,60.1699],"size":7},{"city":"zurich","cdn":[{"name":"CacheFly","code":["zrh"]}],"coordinates":[8.5417,47.3769],"size":7},{"city":"lisbon","cdn":[{"name":"CacheFly","code":["lis"]}],"coordinates":[-9.1393,38.7223],"size":6},{"city":"moscow","cdn":[{"name":"CacheFly","code":["dme"]}],"coordinates":[37.6173,55.7558],"size":5},{"city":"palermo","cdn":[{"name":"CacheFly","code":["pmo"]}],"coordinates":[13.3615,38.1157],"size":4},{"city":"vilnius","cdn":[{"name":"CacheFly","code":["vno"]}],"coordinates":[25.2797,54.6872],"size":4},{"city":"saint petersburg","cdn":[{"name":"CacheFly","code":["led"]}],"coordinates":[30.3609,59.9311],"size":3}]