[{"city":"dallas","cdn":[{"name":"CacheFly","code":["dfw"]}],"coordinates":[-96.797,32.7767],"size":15},{"city":"Bay Area","cdn":[{"name":"CacheFly","code":["sjc"]}],"coordinates":[-122.4194,37.7749],"size":14},{"city":"chicago","cdn":[{"name":"CacheFly","code":["ord"]}],"coordinates":[-87.6298,41.8781],"size":14},{"city":"los angeles","cdn":[{"name":"CacheFly","code":["lax"]}],"coordinates":[-118.2437,34.0522],"size":14},{"city":"miami","cdn":[{"name":"CacheFly","code":["mia"]}],"coordinates":[-80.1918,25.7617],"size":14},{"city":"seattle","cdn":[{"name":"CacheFly","code":["sea"]}],"coordinates":[-122.3321,47.6062],"size":14},{"city":"atlanta","cdn":[{"name":"CacheFly","code":["atl"]}],"coordinates":[-84.388,33.749],"size":13},{"city":"new york","cdn":[{"name":"CacheFly","code":["ewr"]}],"coordinates":[-74.006,40.7128],"size":13},{"city":"washington, d.c.","cdn":[{"name":"CacheFly","code":["iad"]}],"coordinates":[-77.0369,38.9072],"size":13},{"city":"denver","cdn":[{"name":"CacheFly","code":["den"]}],"coordinates":[-104.9903,39.7392],"size":11},{"city":"toronto","cdn":[{"name":"CacheFly","code":["yyz"]}],"coordinates":[-79.3832,43.6532],"size":11},{"city":"phoenix","cdn":[{"name":"CacheFly","code":["phx"]}],"coordinates":[-112.074,33.4484],"size":8},{"city":"queretaro","cdn":[{"name":"CacheFly","code":["qro"]}],"coordinates":[-100.3899,20.5888],"size":7},{"city":"boston","cdn":[{"name":"CacheFly","code":["bos"]}],"coordinates":[-71.0589,42.3601],"size":6},{"city":"mexico city","cdn":[{"name":"CacheFly","code":["mex"]}],"coordinates":[-99.1332,19.4326],"size":5},{"city":"calgary","cdn":[{"name":"CacheFly","code":["yyc"]}],"coordinates":[-114.0719,51.0447],"size":3},{"city":"guadalajara","cdn":[{"name":"CacheFly","code":["gdl"]}],"coordinates":[-103.3496,20.6597],"size":2}]