[{"city":"bangkok","cdn":[{"name":"Bunny","code":["th1"]}],"coordinates":[100.5018,13.7563]},{"city":"dubai","cdn":[{"name":"Bunny","code":["ae1"]}],"coordinates":[55.2708,25.2048]},{"city":"ho chi minh","cdn":[{"name":"Bunny","code":["vn1"]}],"coordinates":[106.6297,10.8231]},{"city":"hong kong","cdn":[{"name":"Bunny","code":["hk1"]}],"coordinates":[114.1694,22.3193]},{"city":"istanbul","cdn":[{"name":"Bunny","code":["tr1"]}],"coordinates":[28.9784,41.0082]},{"city":"jakarta","cdn":[{"name":"Bunny","code":["id1"]}],"coordinates":[106.8456,-6.2088]},{"city":"karachi","cdn":[{"name":"Bunny","code":["pk1"]}],"coordinates":[67.0011,24.8607]},{"city":"manila","cdn":[{"name":"Bunny","code":["ph1"]}],"coordinates":[120.9842,14.5995]},{"city":"mumbai","cdn":[{"name":"Bunny","code":["mu1"]}],"coordinates":[72.8777,19.076]},{"city":"new delhi","cdn":[{"name":"Bunny","code":["nd1"]}],"coordinates":[77.209,28.6139]},{"city":"riyadh","cdn":[{"name":"Bunny","code":["ri1"]}],"coordinates":[46.6753,24.7136]},{"city":"seoul","cdn":[{"name":"Bunny","code":["kr1"]}],"coordinates":[126.978,37.5665]},{"city":"singapore","cdn":[{"name":"Bunny","code":["sg1"]}],"coordinates":[103.8198,1.3521]},{"city":"taipei","cdn":[{"name":"Bunny","code":["tw1"]}],"coordinates":[121.5654,25.033]},{"city":"tel aviv","cdn":[{"name":"Bunny","code":["isr1"]}],"coordinates":[34.7818,32.0853]}]