[{"city":"amsterdam","cdn":[{"name":"Bunny","code":["ams1"]}],"coordinates":[4.9041,52.3676]},{"city":"belgrade","cdn":[{"name":"Bunny","code":["rs1","bg1"]}],"coordinates":[20.4612,44.8125]},{"city":"bucharest","cdn":[{"name":"Bunny","code":["bu1"]}],"coordinates":[26.1025,44.4268]},{"city":"budapest","cdn":[{"name":"Bunny","code":["hu1"]}],"coordinates":[19.0402,47.4979]},{"city":"copenhagen","cdn":[{"name":"Bunny","code":["dk1"]}],"coordinates":[12.5683,55.6761]},{"city":"helsinki","cdn":[{"name":"Bunny","code":["fi1"]}],"coordinates":[24.9384,60.1699]},{"city":"kiev","cdn":[{"name":"Bunny","code":["ua1"]}],"coordinates":[30.5234,50.4501]},{"city":"lisbon","cdn":[{"name":"Bunny","code":["pt1"]}],"coordinates":[-9.1393,38.7223]},{"city":"london","cdn":[{"name":"Bunny","code":["uk1"]}],"coordinates":[-0.1276,51.5072]},{"city":"madrid","cdn":[{"name":"Bunny","code":["es1"]}],"coordinates":[-3.7038,40.4168]},{"city":"milan","cdn":[{"name":"Bunny","code":["it1"]}],"coordinates":[9.19,45.4642]},{"city":"oslo","cdn":[{"name":"Bunny","code":["no1"]}],"coordinates":[10.7522,59.9139]},{"city":"paris","cdn":[{"name":"Bunny","code":["fr1"]}],"coordinates":[2.3522,48.8566]},{"city":"prague","cdn":[{"name":"Bunny","code":["cz1"]}],"coordinates":[17.1077,48.1486]},{"city":"stockholm","cdn":[{"name":"Bunny","code":["se1"]}],"coordinates":[18.0686,59.3293]},{"city":"vienna","cdn":[{"name":"Bunny","code":["at1"]}],"coordinates":[16.3738,48.2082]},{"city":"vilnius","cdn":[{"name":"Bunny","code":["lt1"]}],"coordinates":[25.2797,54.6872]},{"city":"warsaw","cdn":[{"name":"Bunny","code":["pl1"]}],"coordinates":[21.0122,52.2297]},{"city":"zurich","cdn":[{"name":"Bunny","code":["ch1"]}],"coordinates":[8.5417,47.3769]}]