[{"city":"Bay Area","cdn":[{"name":"Bunny","code":["sil1"]}],"coordinates":[-122.4194,37.7749]},{"city":"atlanta","cdn":[{"name":"Bunny","code":["ga1"]}],"coordinates":[-84.388,33.749]},{"city":"chicago","cdn":[{"name":"Bunny","code":["il1"]}],"coordinates":[-87.6298,41.8781]},{"city":"dallas","cdn":[{"name":"Bunny","code":["tx1"]}],"coordinates":[-96.797,32.7767]},{"city":"denver","cdn":[{"name":"Bunny","code":["den1"]}],"coordinates":[-104.9903,39.7392]},{"city":"houston","cdn":[{"name":"Bunny","code":["hou1"]}],"coordinates":[-95.3698,29.7604]},{"city":"kansas city","cdn":[{"name":"Bunny","code":["kc1"]}],"coordinates":[-94.5786,39.0997]},{"city":"los angeles","cdn":[{"name":"Bunny","code":["la1"]}],"coordinates":[-118.2437,34.0522]},{"city":"miami","cdn":[{"name":"Bunny","code":["mi1"]}],"coordinates":[-80.1918,25.7617]},{"city":"montreal","cdn":[{"name":"Bunny","code":["mn1"]}],"coordinates":[-73.5673,45.5017]},{"city":"new york","cdn":[{"name":"Bunny","code":["ny1"]}],"coordinates":[-74.006,40.7128]},{"city":"phoenix","cdn":[{"name":"Bunny","code":["phx1"]}],"coordinates":[-112.074,33.4484]},{"city":"queretaro","cdn":[{"name":"Bunny","code":["mx1"]}],"coordinates":[-100.3899,20.5888]},{"city":"salt lake city","cdn":[{"name":"Bunny","code":["og1"]}],"coordinates":[-111.891,40.7608]},{"city":"seattle","cdn":[{"name":"Bunny","code":["wa1"]}],"coordinates":[-122.3321,47.6062]},{"city":"toronto","cdn":[{"name":"Bunny","code":["ca1"]}],"coordinates":[-79.3832,43.6532]},{"city":"vancouver","cdn":[{"name":"Bunny","code":["va1"]}],"coordinates":[-123.1207,49.2827]},{"city":"washington, d.c.","cdn":[{"name":"Bunny","code":["asb1"]}],"coordinates":[-77.0369,38.9072]}]