[{"city":"adelaide","cdn":[{"name":"Bunny","code":["adl1"]}],"coordinates":[138.6007,-34.9285],"size":4},{"city":"brisbane","cdn":[{"name":"Bunny","code":["brb1"]}],"coordinates":[153.026,-27.4705],"size":4},{"city":"melbourne","cdn":[{"name":"Bunny","code":["mel1"]}],"coordinates":[144.9631,-37.8136],"size":9},{"city":"perth","cdn":[{"name":"Bunny","code":["per1"]}],"coordinates":[115.8613,-31.9523],"size":6},{"city":"sydney","cdn":[{"name":"Bunny","code":["syd1"]}],"coordinates":[151.2093,-33.8688],"size":14}]