[{"city":"amsterdam","cdn":[{"name":"Limelight","code":["ams"]}],"coordinates":[4.9041,52.3676]},{"city":"dusseldorf","cdn":[{"name":"Limelight","code":["dus"]}],"coordinates":[6.7735,51.2277]},{"city":"frankfurt","cdn":[{"name":"Limelight","code":["fra"]}],"coordinates":[8.6821,50.1109]},{"city":"london","cdn":[{"name":"Limelight","code":["lhr"]}],"coordinates":[-0.1276,51.5072]},{"city":"madrid","cdn":[{"name":"Limelight","code":["mad"]}],"coordinates":[-3.7038,40.4168]},{"city":"manchester","cdn":[{"name":"Limelight","code":["man"]}],"coordinates":[-2.2426,53.4808]},{"city":"marseille","cdn":[{"name":"Limelight","code":["mrs"]}],"coordinates":[5.3698,43.2965]},{"city":"milan","cdn":[{"name":"Limelight","code":["mxp"]}],"coordinates":[9.19,45.4642]},{"city":"palermo","cdn":[{"name":"Limelight","code":["pmo"]}],"coordinates":[13.3615,38.1157]},{"city":"paris","cdn":[{"name":"Limelight","code":["cdg"]}],"coordinates":[2.3522,48.8566]},{"city":"rome","cdn":[{"name":"Limelight","code":["fco"]}],"coordinates":[12.4964,41.9028]},{"city":"stockholm","cdn":[{"name":"Limelight","code":["arn"]}],"coordinates":[18.0686,59.3293]},{"city":"vienna","cdn":[{"name":"Limelight","code":["vie"]}],"coordinates":[16.3738,48.2082]},{"city":"zurich","cdn":[{"name":"Limelight","code":["zrh"]}],"coordinates":[8.5417,47.3769]}]