[{"city":"bogota","cdn":[{"name":"Limelight","code":["bog"]}],"coordinates":[-74.0721,4.711]},{"city":"buenos aires","cdn":[{"name":"Limelight","code":["eze"]}],"coordinates":[-58.3816,-34.6037]},{"city":"fortaleza","cdn":[{"name":"Limelight","code":["for"]}],"coordinates":[-38.527,-3.7327]},{"city":"santiago","cdn":[{"name":"Limelight","code":["scl"]}],"coordinates":[-70.6693,-33.4489]},{"city":"sao paulo","cdn":[{"name":"Limelight","code":["gru"]}],"coordinates":[-46.6396,-23.5558]}]