[{"city":"amsterdam","cdn":[{"name":"CloudFront","code":["ams"]}],"coordinates":[4.9041,52.3676]},{"city":"athens","cdn":[{"name":"CloudFront","code":["ath"]}],"coordinates":[23.7275,37.9838]},{"city":"berlin","cdn":[{"name":"CloudFront","code":["txl"]}],"coordinates":[13.405,52.52]},{"city":"brussels","cdn":[{"name":"CloudFront","code":["bru"]}],"coordinates":[4.3572,50.8476]},{"city":"bucharest","cdn":[{"name":"CloudFront","code":["otp"]}],"coordinates":[26.1025,44.4268]},{"city":"budapest","cdn":[{"name":"CloudFront","code":["bud"]}],"coordinates":[19.0402,47.4979]},{"city":"copenhagen","cdn":[{"name":"CloudFront","code":["cph"]}],"coordinates":[12.5683,55.6761]},{"city":"dublin","cdn":[{"name":"CloudFront","code":["dub"]}],"coordinates":[-6.2603,53.3498]},{"city":"dusseldorf","cdn":[{"name":"CloudFront","code":["dus"]}],"coordinates":[6.7735,51.2277]},{"city":"frankfurt","cdn":[{"name":"CloudFront","code":["fra"]}],"coordinates":[8.6821,50.1109]},{"city":"hamburg","cdn":[{"name":"CloudFront","code":["ham"]}],"coordinates":[9.9937,53.5511]},{"city":"helsinki","cdn":[{"name":"CloudFront","code":["hel"]}],"coordinates":[24.9384,60.1699]},{"city":"lisbon","cdn":[{"name":"CloudFront","code":["lis"]}],"coordinates":[-9.1393,38.7223]},{"city":"london","cdn":[{"name":"CloudFront","code":["lhr"]}],"coordinates":[-0.1276,51.5072]},{"city":"madrid","cdn":[{"name":"CloudFront","code":["mad"]}],"coordinates":[-3.7038,40.4168]},{"city":"manchester","cdn":[{"name":"CloudFront","code":["man"]}],"coordinates":[-2.2426,53.4808]},{"city":"marseille","cdn":[{"name":"CloudFront","code":["mrs"]}],"coordinates":[5.3698,43.2965]},{"city":"milan","cdn":[{"name":"CloudFront","code":["mxp"]}],"coordinates":[9.19,45.4642]},{"city":"munich","cdn":[{"name":"CloudFront","code":["muc"]}],"coordinates":[11.582,48.1351]},{"city":"oslo","cdn":[{"name":"CloudFront","code":["osl"]}],"coordinates":[10.7522,59.9139]},{"city":"paris","cdn":[{"name":"CloudFront","code":["cdg"]}],"coordinates":[2.3522,48.8566]},{"city":"prague","cdn":[{"name":"CloudFront","code":["prg"]}],"coordinates":[17.1077,48.1486]},{"city":"rome","cdn":[{"name":"CloudFront","code":["fco"]}],"coordinates":[12.4964,41.9028]},{"city":"sofia","cdn":[{"name":"CloudFront","code":["sof"]}],"coordinates":[23.3219,42.6977]},{"city":"stockholm","cdn":[{"name":"CloudFront","code":["arn"]}],"coordinates":[18.0686,59.3293]},{"city":"vienna","cdn":[{"name":"CloudFront","code":["vie"]}],"coordinates":[16.3738,48.2082]},{"city":"warsaw","cdn":[{"name":"CloudFront","code":["waw"]}],"coordinates":[21.0122,52.2297]},{"city":"zurich","cdn":[{"name":"CloudFront","code":["zrh"]}],"coordinates":[8.5417,47.3769]}]