[{"city":"buenos aires","cdn":[{"name":"CloudFront","code":["eze"]}],"coordinates":[-58.3816,-34.6037]},{"city":"fortaleza","cdn":[{"name":"CloudFront","code":["for"]}],"coordinates":[-38.527,-3.7327]},{"city":"medellin","cdn":[{"name":"CloudFront","code":["bog"]}],"coordinates":[-75.5658,6.2476]},{"city":"rio de janeiro","cdn":[{"name":"CloudFront","code":["gig"]}],"coordinates":[-43.1729,-22.9068]},{"city":"santiago","cdn":[{"name":"CloudFront","code":["scl"]}],"coordinates":[-70.6693,-33.4489]},{"city":"sao paulo","cdn":[{"name":"CloudFront","code":["gru"]}],"coordinates":[-46.6396,-23.5558]}]