[{"city":"buenos aires","cdn":[{"name":"CloudFront","code":["eze"]}],"coordinates":[-58.3816,-34.6037],"size":9},{"city":"fortaleza","cdn":[{"name":"CloudFront","code":["for"]}],"coordinates":[-38.527,-3.7327],"size":8},{"city":"medellin","cdn":[{"name":"CloudFront","code":["bog"]}],"coordinates":[-75.5658,6.2476],"size":5},{"city":"rio de janeiro","cdn":[{"name":"CloudFront","code":["gig"]}],"coordinates":[-43.1729,-22.9068],"size":8},{"city":"santiago","cdn":[{"name":"CloudFront","code":["scl"]}],"coordinates":[-70.6693,-33.4489],"size":10},{"city":"sao paulo","cdn":[{"name":"CloudFront","code":["gru"]}],"coordinates":[-46.6396,-23.5558],"size":13}]