[{"city":"Bay Area","cdn":[{"name":"Tata","code":["sjc"]}],"coordinates":[-122.4194,37.7749]},{"city":"atlanta","cdn":[{"name":"Tata","code":["atl"]}],"coordinates":[-84.388,33.749]},{"city":"chicago","cdn":[{"name":"Tata","code":["ord"]}],"coordinates":[-87.6298,41.8781]},{"city":"dallas","cdn":[{"name":"Tata","code":["dfw"]}],"coordinates":[-96.797,32.7767]},{"city":"denver","cdn":[{"name":"Tata","code":["den"]}],"coordinates":[-104.9903,39.7392]},{"city":"los angeles","cdn":[{"name":"Tata","code":["lax"]}],"coordinates":[-118.2437,34.0522]},{"city":"mcallen","cdn":[{"name":"Tata","code":["mfe"]}],"coordinates":[-98.23,26.2034]},{"city":"miami","cdn":[{"name":"Tata","code":["mia"]}],"coordinates":[-80.1918,25.7617]},{"city":"minneapolis","cdn":[{"name":"Tata","code":["msp"]}],"coordinates":[-93.265,44.9778]},{"city":"montreal","cdn":[{"name":"Tata","code":["yul"]}],"coordinates":[-73.5673,45.5017]},{"city":"new york","cdn":[{"name":"Tata","code":["nyc"]}],"coordinates":[-74.006,40.7128]},{"city":"phoenix","cdn":[{"name":"Tata","code":["phx"]}],"coordinates":[-112.074,33.4484]},{"city":"portland","cdn":[{"name":"Tata","code":["hio"]}],"coordinates":[-122.6784,45.5152]},{"city":"seattle","cdn":[{"name":"Tata","code":["sea"]}],"coordinates":[-122.3321,47.6062]},{"city":"st. louis","cdn":[{"name":"Tata","code":["stl"]}],"coordinates":[-90.1994,38.627]},{"city":"toronto","cdn":[{"name":"Tata","code":["yto"]}],"coordinates":[-79.3832,43.6532]},{"city":"vancouver","cdn":[{"name":"Tata","code":["yvr"]}],"coordinates":[-123.1207,49.2827]},{"city":"washington, d.c.","cdn":[{"name":"Tata","code":["iad"]}],"coordinates":[-77.0369,38.9072]}]