[{"city":"bahrain","cdn":[{"name":"CloudFront","code":["bah"]}],"coordinates":[50.5577,26.0667]},{"city":"bangalore","cdn":[{"name":"Cloudflare","code":["BLR"]},{"name":"Edgecast","code":["blr"]},{"name":"KeyCDN","code":["inba"]},{"name":"Tata","code":["blr"]}],"coordinates":[77.5946,12.9716]},{"city":"bangkok","cdn":[{"name":"Bunny","code":["th1"]},{"name":"CacheFly","code":["bkk"]},{"name":"CloudFront","code":["bkk"]},{"name":"Cloudflare","code":["BKK"]},{"name":"Edgecast","code":["bkk"]},{"name":"G-Core","code":["tidc"]},{"name":"Limelight","code":["bkk"]}],"coordinates":[100.5018,13.7563]},{"city":"chennai","cdn":[{"name":"CloudFront","code":["maa"]},{"name":"Cloudflare","code":["MAA"]},{"name":"Edgecast","code":["tir","maa"]},{"name":"Fastly","code":["MAA"]},{"name":"Limelight","code":["maa"]}],"coordinates":[80.2707,13.0827]},{"city":"cyprus","cdn":[{"name":"G-Core","code":["cyta"]}],"coordinates":[33.4299,35.1264]},{"city":"doha","cdn":[{"name":"CDN77","code":["dohaqa"]},{"name":"CacheFly","code":["DOH"]},{"name":"Cloudflare","code":["DOH"]},{"name":"Limelight","code":["doh"]}],"coordinates":[51.531,25.2854]},{"city":"dubai","cdn":[{"name":"ArvanCloud","code":["4250"]},{"name":"Bunny","code":["ae1"]},{"name":"CacheFly","code":["dxb"]},{"name":"CloudFront","code":["dxb"]},{"name":"Cloudflare","code":["DXB"]},{"name":"Fastly","code":["DXB","FJR"]},{"name":"KeyCDN","code":["aedu"]},{"name":"Limelight","code":["dxb"]}],"coordinates":[55.2708,25.2048]},{"city":"fujairah","cdn":[{"name":"CDN77","code":["fujairahae"]},{"name":"CloudFront","code":["fjr"]},{"name":"Edgecast","code":["uae"]}],"coordinates":[56.3265,25.1288]},{"city":"hanoi","cdn":[{"name":"Cloudflare","code":["HAN"]},{"name":"G-Core","code":["cmhl"]}],"coordinates":[105.8342,21.0278]},{"city":"ho chi minh","cdn":[{"name":"Bunny","code":["vn1"]},{"name":"Cloudflare","code":["SGN"]}],"coordinates":[106.6297,10.8231]},{"city":"hong kong","cdn":[{"name":"ArvanCloud","code":["7750"]},{"name":"Bunny","code":["hk1"]},{"name":"CDN77","code":["hongkonghk"]},{"name":"CacheFly","code":["hkg"]},{"name":"CloudFront","code":["hkg"]},{"name":"Edgecast","code":["hhp","hkc","hkg"]},{"name":"Fastly","code":["HKG"]},{"name":"G-Core","code":["hk2","gnc"]},{"name":"KeyCDN","code":["cnhk"]},{"name":"Limelight","code":["hkg"]},{"name":"StackPath","code":["hk"]},{"name":"Tata","code":["hkg"]}],"coordinates":[114.1694,22.3193]},{"city":"hyderabad","cdn":[{"name":"CloudFront","code":["hyd"]},{"name":"Cloudflare","code":["HYD"]},{"name":"Fastly","code":["HYD"]}],"coordinates":[78.4867,17.385]},{"city":"islamabad","cdn":[{"name":"Cloudflare","code":["ISB"]}],"coordinates":[73.0479,33.6844]},{"city":"istanbul","cdn":[{"name":"ArvanCloud","code":["4100"]},{"name":"Bunny","code":["tr1"]},{"name":"CDN77","code":["istanbultr"]},{"name":"CacheFly","code":["ist"]},{"name":"Cloudflare","code":["IST"]},{"name":"G-Core","code":["tii"]},{"name":"KeyCDN","code":["tris"]},{"name":"Limelight","code":["ist"]}],"coordinates":[28.9784,41.0082]},{"city":"jakarta","cdn":[{"name":"Bunny","code":["id1"]},{"name":"CDN77","code":["jakartaid"]},{"name":"CacheFly","code":["cgk"]},{"name":"CloudFront","code":["cgk"]},{"name":"Cloudflare","code":["CGK"]},{"name":"Edgecast","code":["cgk"]}],"coordinates":[106.8456,-6.2088]},{"city":"jeddah","cdn":[{"name":"CDN77","code":["jeddahsa"]},{"name":"Tata","code":["jed"]}],"coordinates":[39.1925,21.4858]},{"city":"karachi","cdn":[{"name":"Bunny","code":["pk1"]},{"name":"Cloudflare","code":["KHI"]}],"coordinates":[67.0011,24.8607]},{"city":"kolkata","cdn":[{"name":"Cloudflare","code":["CCU"]},{"name":"Fastly","code":["CCU"]},{"name":"CloudFront","code":["ccu"]}],"coordinates":[88.3639,22.5726]},{"city":"kuala lumpur","cdn":[{"name":"CloudFront","code":["kul"]},{"name":"Cloudflare","code":["KUL"]},{"name":"Fastly","code":["KUL"]},{"name":"Limelight","code":["kul"]}],"coordinates":[101.6869,3.139]},{"city":"kuwait city","cdn":[{"name":"Cloudflare","code":["KWI"]},{"name":"Edgecast","code":["xij"]}],"coordinates":[47.9774,29.3759]},{"city":"lahore","cdn":[{"name":"Cloudflare","code":["LHE"]},{"name":"G-Core","code":["eti"]}],"coordinates":[74.3587,31.5204]},{"city":"manila","cdn":[{"name":"Bunny","code":["ph1"]},{"name":"CloudFront","code":["mnl"]},{"name":"Cloudflare","code":["MNL"]},{"name":"Edgecast","code":["mnl"]},{"name":"Fastly","code":["MNL"]},{"name":"G-Core","code":["pns"]},{"name":"Limelight","code":["mnl"]}],"coordinates":[120.9842,14.5995]},{"city":"mumbai","cdn":[{"name":"ArvanCloud","code":["7350"]},{"name":"Bunny","code":["mu1"]},{"name":"CDN77","code":["mumbaiin"]},{"name":"CacheFly","code":["bom"]},{"name":"CloudFront","code":["bom"]},{"name":"Cloudflare","code":["BOM"]},{"name":"Edgecast","code":["nag","pnq"]},{"name":"Fastly","code":["BOM"]},{"name":"G-Core","code":["ww"]},{"name":"Limelight","code":["bom"]},{"name":"Sucuri","code":["22"]},{"name":"Tata","code":["bom"]}],"coordinates":[72.8777,19.076]},{"city":"muscat","cdn":[{"name":"Cloudflare","code":["MCT"]},{"name":"Edgecast","code":["omm"]},{"name":"G-Core","code":["omt"]}],"coordinates":[58.3829,23.588]},{"city":"new delhi","cdn":[{"name":"Bunny","code":["nd1"]},{"name":"CloudFront","code":["del"]},{"name":"Cloudflare","code":["DEL"]},{"name":"Edgecast","code":["ndl"]},{"name":"Fastly","code":["DEL"]},{"name":"G-Core","code":["sum"]},{"name":"Limelight","code":["ndl"]},{"name":"Tata","code":["del"]}],"coordinates":[77.209,28.6139]},{"city":"novosibirsk","cdn":[{"name":"G-Core","code":["nx"]}],"coordinates":[82.8964,54.9833]},{"city":"osaka","cdn":[{"name":"CloudFront","code":["kix"]},{"name":"Cloudflare","code":["KIX"]},{"name":"Edgecast","code":["itm","osa","kix"]},{"name":"Fastly","code":["ITM"]},{"name":"Limelight","code":["kix"]}],"coordinates":[135.5023,34.6937]},{"city":"riyadh","cdn":[{"name":"Bunny","code":["ri1"]},{"name":"CacheFly","code":["ruh"]},{"name":"Cloudflare","code":["RUH"]},{"name":"Limelight","code":["ruh"]}],"coordinates":[46.6753,24.7136]},{"city":"seoul","cdn":[{"name":"Beluga","code":["c1576c69-4e67-4e7e-8bbb-45fe18a41898"]},{"name":"Bunny","code":["kr1"]},{"name":"CacheFly","code":["icn"]},{"name":"Cloudflare","code":["ICN"]},{"name":"Edgecast","code":["icn"]},{"name":"Fastly","code":["ICN"]},{"name":"G-Core","code":["kx"]},{"name":"Limelight","code":["icn"]},{"name":"StackPath","code":["sl"]}],"coordinates":[126.978,37.5665]},{"city":"singapore","cdn":[{"name":"ArvanCloud","code":["7150"]},{"name":"Beluga","code":["adb5d13f-425d-407d-b3f5-55ebb0d90e07"]},{"name":"Bunny","code":["sg1"]},{"name":"CDN77","code":["singapore2sg"]},{"name":"CacheFly","code":["sin"]},{"name":"CloudFront","code":["sin"]},{"name":"Cloudflare","code":["SIN"]},{"name":"Edgecast","code":["sgb","sgd","sgc","sin"]},{"name":"Fastly","code":["QPG"]},{"name":"G-Core","code":["sg1","sgc"]},{"name":"KeyCDN","code":["sgsg"]},{"name":"Limelight","code":["sin"]},{"name":"StackPath","code":["si"]},{"name":"Sucuri","code":["18"]},{"name":"Tata","code":["sin"]}],"coordinates":[103.8198,1.3521]},{"city":"taipei","cdn":[{"name":"Bunny","code":["tw1"]},{"name":"CloudFront","code":["tpe"]},{"name":"Edgecast","code":["tpe"]}],"coordinates":[121.5654,25.033]},{"city":"tbilisi","cdn":[{"name":"Cloudflare","code":["TBS"]}],"coordinates":[44.8271,41.7151]},{"city":"tel aviv","cdn":[{"name":"Bunny","code":["isr1"]},{"name":"CacheFly","code":["tlv"]},{"name":"CloudFront","code":["tlv"]},{"name":"Cloudflare","code":["TLV"]},{"name":"G-Core","code":["bzi"]},{"name":"KeyCDN","code":["ilta"]},{"name":"Limelight","code":["tlv"]}],"coordinates":[34.7818,32.0853]},{"city":"tokyo","cdn":[{"name":"ArvanCloud","code":["7050"]},{"name":"Beluga","code":["1afcf95f-cead-485f-a536-05a2ad3bc7f9"]},{"name":"CDN77","code":["tokyojp"]},{"name":"CacheFly","code":["tko"]},{"name":"CloudFront","code":["nrt"]},{"name":"Cloudflare","code":["NRT"]},{"name":"Edgecast","code":["tka","tkb","tkc","hnd","nrt"]},{"name":"Fastly","code":["HND","NRT","TYO"]},{"name":"G-Core","code":["cc1"]},{"name":"KeyCDN","code":["jptk"]},{"name":"StackPath","code":["tk"]},{"name":"Sucuri","code":["16"]},{"name":"Tata","code":["nrt"]}],"coordinates":[139.6503,35.6762]}]