[{"city":"chennai","cdn":[{"name":"Fastly","code":["MAA"]}],"coordinates":[80.2707,13.0827]},{"city":"dubai","cdn":[{"name":"Fastly","code":["DXB","FJR"]}],"coordinates":[55.2708,25.2048]},{"city":"hong kong","cdn":[{"name":"Fastly","code":["HKG"]}],"coordinates":[114.1694,22.3193]},{"city":"hyderabad","cdn":[{"name":"Fastly","code":["HYD"]}],"coordinates":[78.4867,17.385]},{"city":"kolkata","cdn":[{"name":"Fastly","code":["CCU"]}],"coordinates":[88.3639,22.5726]},{"city":"kuala lumpur","cdn":[{"name":"Fastly","code":["KUL"]}],"coordinates":[101.6869,3.139]},{"city":"manila","cdn":[{"name":"Fastly","code":["MNL"]}],"coordinates":[120.9842,14.5995]},{"city":"mumbai","cdn":[{"name":"Fastly","code":["BOM"]}],"coordinates":[72.8777,19.076]},{"city":"new delhi","cdn":[{"name":"Fastly","code":["DEL"]}],"coordinates":[77.209,28.6139]},{"city":"osaka","cdn":[{"name":"Fastly","code":["ITM"]}],"coordinates":[135.5023,34.6937]},{"city":"seoul","cdn":[{"name":"Fastly","code":["ICN"]}],"coordinates":[126.978,37.5665]},{"city":"singapore","cdn":[{"name":"Fastly","code":["QPG"]}],"coordinates":[103.8198,1.3521]},{"city":"tokyo","cdn":[{"name":"Fastly","code":["HND","NRT","TYO"]}],"coordinates":[139.6503,35.6762]}]