[{"city":"amsterdam","cdn":[{"name":"Fastly","code":["AMS"]}],"coordinates":[4.9041,52.3676]},{"city":"brussels","cdn":[{"name":"Fastly","code":["BRU"]}],"coordinates":[4.3572,50.8476]},{"city":"copenhagen","cdn":[{"name":"Fastly","code":["CPH"]}],"coordinates":[12.5683,55.6761]},{"city":"dublin","cdn":[{"name":"Fastly","code":["DUB"]}],"coordinates":[-6.2603,53.3498]},{"city":"frankfurt","cdn":[{"name":"Fastly","code":["FRA","HHN"]}],"coordinates":[8.6821,50.1109]},{"city":"helsinki","cdn":[{"name":"Fastly","code":["HEL"]}],"coordinates":[24.9384,60.1699]},{"city":"lisbon","cdn":[{"name":"Fastly","code":["LIS"]}],"coordinates":[-9.1393,38.7223]},{"city":"london","cdn":[{"name":"Fastly","code":["LCY","LHR","LON"]}],"coordinates":[-0.1276,51.5072]},{"city":"madrid","cdn":[{"name":"Fastly","code":["MAD"]}],"coordinates":[-3.7038,40.4168]},{"city":"manchester","cdn":[{"name":"Fastly","code":["MAN"]}],"coordinates":[-2.2426,53.4808]},{"city":"marseille","cdn":[{"name":"Fastly","code":["MRS"]}],"coordinates":[5.3698,43.2965]},{"city":"milan","cdn":[{"name":"Fastly","code":["LIN","MXP"]}],"coordinates":[9.19,45.4642]},{"city":"munich","cdn":[{"name":"Fastly","code":["MUC"]}],"coordinates":[11.582,48.1351]},{"city":"oslo","cdn":[{"name":"Fastly","code":["OSL"]}],"coordinates":[10.7522,59.9139]},{"city":"palermo","cdn":[{"name":"Fastly","code":["PMO"]}],"coordinates":[13.3615,38.1157]},{"city":"paris","cdn":[{"name":"Fastly","code":["CDG"]}],"coordinates":[2.3522,48.8566]},{"city":"rome","cdn":[{"name":"Fastly","code":["FCO"]}],"coordinates":[12.4964,41.9028]},{"city":"sofia","cdn":[{"name":"Fastly","code":["SOF"]}],"coordinates":[23.3219,42.6977]},{"city":"stockholm","cdn":[{"name":"Fastly","code":["BMA"]}],"coordinates":[18.0686,59.3293]},{"city":"vienna","cdn":[{"name":"Fastly","code":["VIE"]}],"coordinates":[16.3738,48.2082]}]