[{"city":"dallas","cdn":[{"name":"Fastly","code":["DAL","DFW"]}],"coordinates":[-96.797,32.7767],"size":15},{"city":"Bay Area","cdn":[{"name":"Fastly","code":["PAO","SJC"]}],"coordinates":[-122.4194,37.7749],"size":14},{"city":"chicago","cdn":[{"name":"Fastly","code":["CHI","MDW","ORD","PWK"]}],"coordinates":[-87.6298,41.8781],"size":14},{"city":"los angeles","cdn":[{"name":"Fastly","code":["BUR","LGB"]}],"coordinates":[-118.2437,34.0522],"size":14},{"city":"miami","cdn":[{"name":"Fastly","code":["MIA"]}],"coordinates":[-80.1918,25.7617],"size":14},{"city":"seattle","cdn":[{"name":"Fastly","code":["BFI","SEA"]}],"coordinates":[-122.3321,47.6062],"size":14},{"city":"atlanta","cdn":[{"name":"Fastly","code":["ATL","FTY","PDK"]}],"coordinates":[-84.388,33.749],"size":13},{"city":"new york","cdn":[{"name":"Fastly","code":["LGA","EWR"]}],"coordinates":[-74.006,40.7128],"size":13},{"city":"washington, d.c.","cdn":[{"name":"Fastly","code":["IAD","WDC"]}],"coordinates":[-77.0369,38.9072],"size":13},{"city":"denver","cdn":[{"name":"Fastly","code":["DEN"]}],"coordinates":[-104.9903,39.7392],"size":11},{"city":"toronto","cdn":[{"name":"Fastly","code":["YYZ"]}],"coordinates":[-79.3832,43.6532],"size":11},{"city":"montreal","cdn":[{"name":"Fastly","code":["YUL"]}],"coordinates":[-73.5673,45.5017],"size":8},{"city":"phoenix","cdn":[{"name":"Fastly","code":["PHX"]}],"coordinates":[-112.074,33.4484],"size":8},{"city":"houston","cdn":[{"name":"Fastly","code":["IAH"]}],"coordinates":[-95.3698,29.7604],"size":7},{"city":"boston","cdn":[{"name":"Fastly","code":["BOS"]}],"coordinates":[-71.0589,42.3601],"size":6},{"city":"minneapolis","cdn":[{"name":"Fastly","code":["MSP","STP"]}],"coordinates":[-93.265,44.9778],"size":6},{"city":"vancouver","cdn":[{"name":"Fastly","code":["YVR"]}],"coordinates":[-123.1207,49.2827],"size":6},{"city":"detroit","cdn":[{"name":"Fastly","code":["DTW"]}],"coordinates":[-83.0458,42.3314],"size":4},{"city":"kansas city","cdn":[{"name":"Fastly","code":["MCI"]}],"coordinates":[-94.5786,39.0997],"size":4},{"city":"portland","cdn":[{"name":"Fastly","code":["PDX"]}],"coordinates":[-122.6784,45.5152],"size":4},{"city":"calgary","cdn":[{"name":"Fastly","code":["YYC"]}],"coordinates":[-114.0719,51.0447],"size":3},{"city":"st. louis","cdn":[{"name":"Fastly","code":["STL"]}],"coordinates":[-90.1994,38.627],"size":3},{"city":"columbus","cdn":[{"name":"Fastly","code":["CMH","LCK"]}],"coordinates":[-82.9988,39.9612],"size":2},{"city":"honolulu","cdn":[{"name":"Fastly","code":["HNL"]}],"coordinates":[-157.8581,21.3099],"size":2}]