[{"city":"amsterdam","cdn":[{"name":"Edgecast","code":["ama","amb","amc","amm","amn","ams","rtm"]}],"coordinates":[4.9041,52.3676]},{"city":"bucharest","cdn":[{"name":"Edgecast","code":["otp"]}],"coordinates":[26.1025,44.4268]},{"city":"copenhagen","cdn":[{"name":"Edgecast","code":["cph"]}],"coordinates":[12.5683,55.6761]},{"city":"frankfurt","cdn":[{"name":"Edgecast","code":["frb","frc","frd","fcn","fra","frf"]}],"coordinates":[8.6821,50.1109]},{"city":"helsinki","cdn":[{"name":"Edgecast","code":["hel"]}],"coordinates":[24.9384,60.1699]},{"city":"lisbon","cdn":[{"name":"Edgecast","code":["lis"]}],"coordinates":[-9.1393,38.7223]},{"city":"london","cdn":[{"name":"Edgecast","code":["lcy","lha","lhb","lhc","lhd","lhm","lhn","lhr"]}],"coordinates":[-0.1276,51.5072]},{"city":"madrid","cdn":[{"name":"Edgecast","code":["mdr","mad","toj"]}],"coordinates":[-3.7038,40.4168]},{"city":"manchester","cdn":[{"name":"Edgecast","code":["lpl"]}],"coordinates":[-2.2426,53.4808]},{"city":"marseille","cdn":[{"name":"Edgecast","code":["mrs"]}],"coordinates":[5.3698,43.2965]},{"city":"milan","cdn":[{"name":"Edgecast","code":["mil","mxp"]}],"coordinates":[9.19,45.4642]},{"city":"munich","cdn":[{"name":"Edgecast","code":["muc"]}],"coordinates":[11.582,48.1351]},{"city":"paris","cdn":[{"name":"Edgecast","code":["paa","pab","cdg","ory","pox"]}],"coordinates":[2.3522,48.8566]},{"city":"riga","cdn":[{"name":"Edgecast","code":["rix"]}],"coordinates":[24.1052,56.9496]},{"city":"sofia","cdn":[{"name":"Edgecast","code":["sof"]}],"coordinates":[23.3219,42.6977]},{"city":"stockholm","cdn":[{"name":"Edgecast","code":["ska","sto","arn"]}],"coordinates":[18.0686,59.3293]},{"city":"vienna","cdn":[{"name":"Edgecast","code":["via","vie"]}],"coordinates":[16.3738,48.2082]},{"city":"warsaw","cdn":[{"name":"Edgecast","code":["wmi","waw"]}],"coordinates":[21.0122,52.2297]}]