[{"city":"dallas","cdn":[{"name":"Edgecast","code":["daa","dab","dad","dac","dfw","ftw"]}],"coordinates":[-96.797,32.7767],"size":15},{"city":"Bay Area","cdn":[{"name":"Edgecast","code":["saa","sab","sac","sam","san","rhv","sjc","sjo"]}],"coordinates":[-122.4194,37.7749],"size":14},{"city":"chicago","cdn":[{"name":"Edgecast","code":["cha","chb","chd","che","cmc","mdw","ord"]}],"coordinates":[-87.6298,41.8781],"size":14},{"city":"los angeles","cdn":[{"name":"Edgecast","code":["bur","laa","lab","lac","lax","oxr","vny","cpm"]}],"coordinates":[-118.2437,34.0522],"size":14},{"city":"miami","cdn":[{"name":"Edgecast","code":["mib","mic","mid","fll","mia"]}],"coordinates":[-80.1918,25.7617],"size":14},{"city":"seattle","cdn":[{"name":"Edgecast","code":["seb","sec","sed","pae","sea"]}],"coordinates":[-122.3321,47.6062],"size":14},{"city":"atlanta","cdn":[{"name":"Edgecast","code":["aga","agb","agc","bdc","atl","fty"]}],"coordinates":[-84.388,33.749],"size":13},{"city":"new york","cdn":[{"name":"Edgecast","code":["nya","nyb","nyd","ewr","lga","jfk","jfz","bnj","cnj"]}],"coordinates":[-74.006,40.7128],"size":13},{"city":"washington, d.c.","cdn":[{"name":"Edgecast","code":["cdc","dcb","dcc","dcd","dce","dca","iad"]}],"coordinates":[-77.0369,38.9072],"size":13},{"city":"denver","cdn":[{"name":"Edgecast","code":["dna","den"]}],"coordinates":[-104.9903,39.7392],"size":11},{"city":"phoenix","cdn":[{"name":"Edgecast","code":["phx"]}],"coordinates":[-112.074,33.4484],"size":8},{"city":"houston","cdn":[{"name":"Edgecast","code":["hou"]}],"coordinates":[-95.3698,29.7604],"size":7},{"city":"queretaro","cdn":[{"name":"Edgecast","code":["qro"]}],"coordinates":[-100.3899,20.5888],"size":7},{"city":"boston","cdn":[{"name":"Edgecast","code":["bsa","bsb","bsm","bsn","bos"]}],"coordinates":[-71.0589,42.3601],"size":6},{"city":"minneapolis","cdn":[{"name":"Edgecast","code":["msp"]}],"coordinates":[-93.265,44.9778],"size":6},{"city":"mexico city","cdn":[{"name":"Edgecast","code":["mex","tlc"]}],"coordinates":[-99.1332,19.4326],"size":5},{"city":"detroit","cdn":[{"name":"Edgecast","code":["dtw"]}],"coordinates":[-83.0458,42.3314],"size":4},{"city":"philadelphia","cdn":[{"name":"Edgecast","code":["phd","phl"]}],"coordinates":[-75.1652,39.9526],"size":4},{"city":"guadalajara","cdn":[{"name":"Edgecast","code":["gdl","pvr"]}],"coordinates":[-103.3496,20.6597],"size":2},{"city":"las vegas","cdn":[{"name":"Edgecast","code":["lsv"]}],"coordinates":[-115.1391,36.1716],"size":2},{"city":"pittsburgh","cdn":[{"name":"Edgecast","code":["pit"]}],"coordinates":[-79.9959,40.4406],"size":2}]