[{"city":"amsterdam","cdn":[{"name":"CDN77","code":["amsterdamnl"]}],"coordinates":[4.9041,52.3676]},{"city":"bratislava","cdn":[{"name":"CDN77","code":["bratislavask"]}],"coordinates":[17.1077,48.1486]},{"city":"bucharest","cdn":[{"name":"CDN77","code":["bucharestro"]}],"coordinates":[26.1025,44.4268]},{"city":"frankfurt","cdn":[{"name":"CDN77","code":["frankfurtde"]}],"coordinates":[8.6821,50.1109]},{"city":"kiev","cdn":[{"name":"CDN77","code":["kievua"]}],"coordinates":[30.5234,50.4501]},{"city":"london","cdn":[{"name":"CDN77","code":["londongb"]}],"coordinates":[-0.1276,51.5072]},{"city":"madrid","cdn":[{"name":"CDN77","code":["madrides"]}],"coordinates":[-3.7038,40.4168]},{"city":"marseille","cdn":[{"name":"CDN77","code":["marseillefr"]}],"coordinates":[5.3698,43.2965]},{"city":"milan","cdn":[{"name":"CDN77","code":["milanit"]}],"coordinates":[9.19,45.4642]},{"city":"minsk","cdn":[{"name":"CDN77","code":["minskby"]}],"coordinates":[27.559,53.9006]},{"city":"moscow","cdn":[{"name":"CDN77","code":["moscow_6_ru"]}],"coordinates":[37.6173,55.7558]},{"city":"paris","cdn":[{"name":"CDN77","code":["parisfr"]}],"coordinates":[2.3522,48.8566]},{"city":"prague","cdn":[{"name":"CDN77","code":["praguecz"]}],"coordinates":[17.1077,48.1486]},{"city":"sofia","cdn":[{"name":"CDN77","code":["sofiabg"]}],"coordinates":[23.3219,42.6977]},{"city":"stockholm","cdn":[{"name":"CDN77","code":["stockholmse"]}],"coordinates":[18.0686,59.3293]},{"city":"vienna","cdn":[{"name":"CDN77","code":["viennaat"]}],"coordinates":[16.3738,48.2082]},{"city":"warsaw","cdn":[{"name":"CDN77","code":["warsawpl"]}],"coordinates":[21.0122,52.2297]},{"city":"zurich","cdn":[{"name":"CDN77","code":["zurichch"]}],"coordinates":[8.5417,47.3769]}]