[{"city":"dallas","cdn":[{"name":"CDN77","code":["dallasustx"]}],"coordinates":[-96.797,32.7767],"size":15},{"city":"Bay Area","cdn":[{"name":"CDN77","code":["sanjoseusca"]}],"coordinates":[-122.4194,37.7749],"size":14},{"city":"chicago","cdn":[{"name":"CDN77","code":["chicagousil"]}],"coordinates":[-87.6298,41.8781],"size":14},{"city":"los angeles","cdn":[{"name":"CDN77","code":["losangelesusca"]}],"coordinates":[-118.2437,34.0522],"size":14},{"city":"miami","cdn":[{"name":"CDN77","code":["miamiusfl"]}],"coordinates":[-80.1918,25.7617],"size":14},{"city":"seattle","cdn":[{"name":"CDN77","code":["seattleuswa"]}],"coordinates":[-122.3321,47.6062],"size":14},{"city":"atlanta","cdn":[{"name":"CDN77","code":["atlantausga"]}],"coordinates":[-84.388,33.749],"size":13},{"city":"new york","cdn":[{"name":"CDN77","code":["newyorkusny"]}],"coordinates":[-74.006,40.7128],"size":13},{"city":"washington, d.c.","cdn":[{"name":"CDN77","code":["ashburnusva"]}],"coordinates":[-77.0369,38.9072],"size":13},{"city":"denver","cdn":[{"name":"CDN77","code":["denverusco"]}],"coordinates":[-104.9903,39.7392],"size":11},{"city":"toronto","cdn":[{"name":"CDN77","code":["torontocaon"]}],"coordinates":[-79.3832,43.6532],"size":11},{"city":"houston","cdn":[{"name":"CDN77","code":["houstonustx"]}],"coordinates":[-95.3698,29.7604],"size":7},{"city":"panama city","cdn":[{"name":"CDN77","code":["panamacitypa"]}],"coordinates":[-79.5199,8.9824],"size":2}]