[{"city":"dallas","cdn":[{"name":"Beluga","code":["08183940-5177-44fe-99c6-81d57785bf54"]}],"coordinates":[-96.797,32.7767],"size":15},{"city":"Bay Area","cdn":[{"name":"Beluga","code":["1c356782-0b78-4f4d-943e-2a176610b357"]}],"coordinates":[-122.4194,37.7749],"size":14},{"city":"chicago","cdn":[{"name":"Beluga","code":["e3b5297d-aaf0-4d3b-978a-3769b95cb8cc"]}],"coordinates":[-87.6298,41.8781],"size":14},{"city":"los angeles","cdn":[{"name":"Beluga","code":["89bfd0a5-6bc3-4f66-8f39-c245d891092a"]}],"coordinates":[-118.2437,34.0522],"size":14},{"city":"miami","cdn":[{"name":"Beluga","code":["098b22a3-9995-4af1-860f-4171e4c48918"]}],"coordinates":[-80.1918,25.7617],"size":14},{"city":"seattle","cdn":[{"name":"Beluga","code":["5a88df53-8cd5-4b65-b4ba-b3ffd87fa60f"]}],"coordinates":[-122.3321,47.6062],"size":14},{"city":"atlanta","cdn":[{"name":"Beluga","code":["23d383a7-e4f1-4b8d-b317-f3b5cc30fec6"]}],"coordinates":[-84.388,33.749],"size":13},{"city":"new york","cdn":[{"name":"Beluga","code":["445cb801-fd26-4766-87b0-dca7f3793d0f"]}],"coordinates":[-74.006,40.7128],"size":13},{"city":"montreal","cdn":[{"name":"Beluga","code":["7cc3bef9-bd29-455b-aa5c-746987cae25f"]}],"coordinates":[-73.5673,45.5017],"size":8}]