[{"city":"amsterdam","cdn":[{"name":"KeyCDN","code":["nlam"]}],"coordinates":[4.9041,52.3676],"size":14},{"city":"athens","cdn":[{"name":"KeyCDN","code":["grat"]}],"coordinates":[23.7275,37.9838],"size":3},{"city":"bucharest","cdn":[{"name":"KeyCDN","code":["robu"]}],"coordinates":[26.1025,44.4268],"size":8},{"city":"frankfurt","cdn":[{"name":"KeyCDN","code":["defr"]}],"coordinates":[8.6821,50.1109],"size":14},{"city":"helsinki","cdn":[{"name":"KeyCDN","code":["fihe"]}],"coordinates":[24.9384,60.1699],"size":7},{"city":"london","cdn":[{"name":"KeyCDN","code":["uklo"]}],"coordinates":[-0.1276,51.5072],"size":14},{"city":"madrid","cdn":[{"name":"KeyCDN","code":["esma"]}],"coordinates":[-3.7038,40.4168],"size":11},{"city":"milan","cdn":[{"name":"KeyCDN","code":["itmi"]}],"coordinates":[9.19,45.4642],"size":12},{"city":"oslo","cdn":[{"name":"KeyCDN","code":["noos"]}],"coordinates":[10.7522,59.9139],"size":5},{"city":"paris","cdn":[{"name":"KeyCDN","code":["frpa"]}],"coordinates":[2.3522,48.8566],"size":13},{"city":"stockholm","cdn":[{"name":"KeyCDN","code":["sest"]}],"coordinates":[18.0686,59.3293],"size":11},{"city":"vienna","cdn":[{"name":"KeyCDN","code":["atvi"]}],"coordinates":[16.3738,48.2082],"size":9},{"city":"warsaw","cdn":[{"name":"KeyCDN","code":["plwa"]}],"coordinates":[21.0122,52.2297],"size":10},{"city":"zurich","cdn":[{"name":"KeyCDN","code":["chzh"]}],"coordinates":[8.5417,47.3769],"size":7}]