[{"city":"Bay Area","cdn":[{"name":"KeyCDN","code":["ussf"]}],"coordinates":[-122.4194,37.7749]},{"city":"atlanta","cdn":[{"name":"KeyCDN","code":["usat"]}],"coordinates":[-84.388,33.749]},{"city":"chicago","cdn":[{"name":"KeyCDN","code":["usch"]}],"coordinates":[-87.6298,41.8781]},{"city":"dallas","cdn":[{"name":"KeyCDN","code":["usda"]}],"coordinates":[-96.797,32.7767]},{"city":"denver","cdn":[{"name":"KeyCDN","code":["usde"]}],"coordinates":[-104.9903,39.7392]},{"city":"los angeles","cdn":[{"name":"KeyCDN","code":["usla"]}],"coordinates":[-118.2437,34.0522]},{"city":"mexico city","cdn":[{"name":"KeyCDN","code":["mxmc"]}],"coordinates":[-99.1332,19.4326]},{"city":"miami","cdn":[{"name":"KeyCDN","code":["usmi"]}],"coordinates":[-80.1918,25.7617]},{"city":"montreal","cdn":[{"name":"KeyCDN","code":["camo"]}],"coordinates":[-73.5673,45.5017]},{"city":"new york","cdn":[{"name":"KeyCDN","code":["usny"]}],"coordinates":[-74.006,40.7128]},{"city":"seattle","cdn":[{"name":"KeyCDN","code":["usse"]}],"coordinates":[-122.3321,47.6062]}]