[{"city":"amsterdam","cdn":[{"name":"Cloudflare","code":["AMS"]}],"coordinates":[4.9041,52.3676],"size":14},{"city":"athens","cdn":[{"name":"Cloudflare","code":["ATH"]}],"coordinates":[23.7275,37.9838],"size":3},{"city":"barcelona","cdn":[{"name":"Cloudflare","code":["BCN"]}],"coordinates":[2.1686,41.3874],"size":2},{"city":"belgrade","cdn":[{"name":"Cloudflare","code":["BEG"]}],"coordinates":[20.4612,44.8125],"size":2},{"city":"berlin","cdn":[{"name":"Cloudflare","code":["TXL"]}],"coordinates":[13.405,52.52],"size":2},{"city":"brussels","cdn":[{"name":"Cloudflare","code":["BRU"]}],"coordinates":[4.3572,50.8476],"size":3},{"city":"bucharest","cdn":[{"name":"Cloudflare","code":["OTP"]}],"coordinates":[26.1025,44.4268],"size":8},{"city":"budapest","cdn":[{"name":"Cloudflare","code":["BUD"]}],"coordinates":[19.0402,47.4979],"size":4},{"city":"copenhagen","cdn":[{"name":"Cloudflare","code":["CPH"]}],"coordinates":[12.5683,55.6761],"size":6},{"city":"dublin","cdn":[{"name":"Cloudflare","code":["DUB"]}],"coordinates":[-6.2603,53.3498],"size":3},{"city":"dusseldorf","cdn":[{"name":"Cloudflare","code":["DUS"]}],"coordinates":[6.7735,51.2277],"size":3},{"city":"edinburgh","cdn":[{"name":"Cloudflare","code":["EDI"]}],"coordinates":[-3.1883,55.9533],"size":1},{"city":"frankfurt","cdn":[{"name":"Cloudflare","code":["FRA"]}],"coordinates":[8.6821,50.1109],"size":14},{"city":"geneva","cdn":[{"name":"Cloudflare","code":["GVA"]}],"coordinates":[6.1432,46.2044],"size":1},{"city":"gothenburg","cdn":[{"name":"Cloudflare","code":["GOT"]}],"coordinates":[11.9746,57.7089],"size":1},{"city":"hamburg","cdn":[{"name":"Cloudflare","code":["HAM"]}],"coordinates":[9.9937,53.5511],"size":2},{"city":"helsinki","cdn":[{"name":"Cloudflare","code":["HEL"]}],"coordinates":[24.9384,60.1699],"size":7},{"city":"kiev","cdn":[{"name":"Cloudflare","code":["KBP"]}],"coordinates":[30.5234,50.4501],"size":3},{"city":"lisbon","cdn":[{"name":"Cloudflare","code":["LIS"]}],"coordinates":[-9.1393,38.7223],"size":6},{"city":"london","cdn":[{"name":"Cloudflare","code":["LHR"]}],"coordinates":[-0.1276,51.5072],"size":14},{"city":"luxembourg","cdn":[{"name":"Cloudflare","code":["LUX"]}],"coordinates":[6.1296,49.8153],"size":2},{"city":"madrid","cdn":[{"name":"Cloudflare","code":["MAD"]}],"coordinates":[-3.7038,40.4168],"size":11},{"city":"manchester","cdn":[{"name":"Cloudflare","code":["MAN"]}],"coordinates":[-2.2426,53.4808],"size":5},{"city":"marseille","cdn":[{"name":"Cloudflare","code":["MRS"]}],"coordinates":[5.3698,43.2965],"size":7},{"city":"milan","cdn":[{"name":"Cloudflare","code":["MXP"]}],"coordinates":[9.19,45.4642],"size":12},{"city":"minsk","cdn":[{"name":"Cloudflare","code":["MSQ"]}],"coordinates":[27.559,53.9006],"size":2},{"city":"moscow","cdn":[{"name":"Cloudflare","code":["DME"]}],"coordinates":[37.6173,55.7558],"size":5},{"city":"munich","cdn":[{"name":"Cloudflare","code":["MUC"]}],"coordinates":[11.582,48.1351],"size":4},{"city":"oslo","cdn":[{"name":"Cloudflare","code":["OSL"]}],"coordinates":[10.7522,59.9139],"size":5},{"city":"palermo","cdn":[{"name":"Cloudflare","code":["PMO"]}],"coordinates":[13.3615,38.1157],"size":4},{"city":"paris","cdn":[{"name":"Cloudflare","code":["CDG"]}],"coordinates":[2.3522,48.8566],"size":13},{"city":"prague","cdn":[{"name":"Cloudflare","code":["PRG"]}],"coordinates":[17.1077,48.1486],"size":5},{"city":"riga","cdn":[{"name":"Cloudflare","code":["RIX"]}],"coordinates":[24.1052,56.9496],"size":2},{"city":"rome","cdn":[{"name":"Cloudflare","code":["FCO"]}],"coordinates":[12.4964,41.9028],"size":4},{"city":"saint petersburg","cdn":[{"name":"Cloudflare","code":["LED"]}],"coordinates":[30.3609,59.9311],"size":3},{"city":"sofia","cdn":[{"name":"Cloudflare","code":["SOF"]}],"coordinates":[23.3219,42.6977],"size":8},{"city":"stockholm","cdn":[{"name":"Cloudflare","code":["ARN"]}],"coordinates":[18.0686,59.3293],"size":11},{"city":"tallinn","cdn":[{"name":"Cloudflare","code":["TLL"]}],"coordinates":[24.7536,59.437],"size":1},{"city":"thessaloniki","cdn":[{"name":"Cloudflare","code":["SKG"]}],"coordinates":[22.9444,40.6401],"size":1},{"city":"vienna","cdn":[{"name":"Cloudflare","code":["VIE"]}],"coordinates":[16.3738,48.2082],"size":9},{"city":"vilnius","cdn":[{"name":"Cloudflare","code":["VNO"]}],"coordinates":[25.2797,54.6872],"size":4},{"city":"warsaw","cdn":[{"name":"Cloudflare","code":["WAW"]}],"coordinates":[21.0122,52.2297],"size":10},{"city":"zurich","cdn":[{"name":"Cloudflare","code":["ZRH"]}],"coordinates":[8.5417,47.3769],"size":7}]