[{"city":"Bay Area","cdn":[{"name":"Cloudflare","code":["SJC"]}],"coordinates":[-122.4194,37.7749]},{"city":"atlanta","cdn":[{"name":"Cloudflare","code":["ATL"]}],"coordinates":[-84.388,33.749]},{"city":"boston","cdn":[{"name":"Cloudflare","code":["BOS"]}],"coordinates":[-71.0589,42.3601]},{"city":"buffalo","cdn":[{"name":"Cloudflare","code":["BUF"]}],"coordinates":[-78.8784,42.8864]},{"city":"calgary","cdn":[{"name":"Cloudflare","code":["YYC"]}],"coordinates":[-114.0719,51.0447]},{"city":"charlotte","cdn":[{"name":"Cloudflare","code":["CLT"]}],"coordinates":[-80.8431,35.2271]},{"city":"chicago","cdn":[{"name":"Cloudflare","code":["ORD"]}],"coordinates":[-87.6298,41.8781]},{"city":"columbus","cdn":[{"name":"Cloudflare","code":["CMH"]}],"coordinates":[-82.9988,39.9612]},{"city":"dallas","cdn":[{"name":"Cloudflare","code":["DFW"]}],"coordinates":[-96.797,32.7767]},{"city":"denver","cdn":[{"name":"Cloudflare","code":["DEN"]}],"coordinates":[-104.9903,39.7392]},{"city":"detroit","cdn":[{"name":"Cloudflare","code":["DTW"]}],"coordinates":[-83.0458,42.3314]},{"city":"honolulu","cdn":[{"name":"Cloudflare","code":["HNL"]}],"coordinates":[-157.8581,21.3099]},{"city":"houston","cdn":[{"name":"Cloudflare","code":["IAH"]}],"coordinates":[-95.3698,29.7604]},{"city":"kansas city","cdn":[{"name":"Cloudflare","code":["MCI"]}],"coordinates":[-94.5786,39.0997]},{"city":"las vegas","cdn":[{"name":"Cloudflare","code":["LAS"]}],"coordinates":[-115.1391,36.1716]},{"city":"los angeles","cdn":[{"name":"Cloudflare","code":["LAX"]}],"coordinates":[-118.2437,34.0522]},{"city":"mcallen","cdn":[{"name":"Cloudflare","code":["MFE"]}],"coordinates":[-98.23,26.2034]},{"city":"mexico city","cdn":[{"name":"Cloudflare","code":["MEX"]}],"coordinates":[-99.1332,19.4326]},{"city":"miami","cdn":[{"name":"Cloudflare","code":["MIA"]}],"coordinates":[-80.1918,25.7617]},{"city":"minneapolis","cdn":[{"name":"Cloudflare","code":["MSP"]}],"coordinates":[-93.265,44.9778]},{"city":"montreal","cdn":[{"name":"Cloudflare","code":["YUL"]}],"coordinates":[-73.5673,45.5017]},{"city":"new york","cdn":[{"name":"Cloudflare","code":["EWR"]}],"coordinates":[-74.006,40.7128]},{"city":"ottawa","cdn":[{"name":"Cloudflare","code":["YOW"]}],"coordinates":[-75.6972,45.4215]},{"city":"panama city","cdn":[{"name":"Cloudflare","code":["PTY"]}],"coordinates":[-79.5199,8.9824]},{"city":"philadelphia","cdn":[{"name":"Cloudflare","code":["PHL"]}],"coordinates":[-75.1652,39.9526]},{"city":"phoenix","cdn":[{"name":"Cloudflare","code":["PHX"]}],"coordinates":[-112.074,33.4484]},{"city":"pittsburgh","cdn":[{"name":"Cloudflare","code":["PIT"]}],"coordinates":[-79.9959,40.4406]},{"city":"portland","cdn":[{"name":"Cloudflare","code":["PDX"]}],"coordinates":[-122.6784,45.5152]},{"city":"queretaro","cdn":[{"name":"Cloudflare","code":["QRO"]}],"coordinates":[-100.3899,20.5888]},{"city":"salt lake city","cdn":[{"name":"Cloudflare","code":["SLC"]}],"coordinates":[-111.891,40.7608]},{"city":"san diego","cdn":[{"name":"Cloudflare","code":["SAN"]}],"coordinates":[-117.1611,32.7157]},{"city":"seattle","cdn":[{"name":"Cloudflare","code":["SEA"]}],"coordinates":[-122.3321,47.6062]},{"city":"st. louis","cdn":[{"name":"Cloudflare","code":["STL"]}],"coordinates":[-90.1994,38.627]},{"city":"tampa","cdn":[{"name":"Cloudflare","code":["TPA"]}],"coordinates":[-82.4572,27.9506]},{"city":"toronto","cdn":[{"name":"Cloudflare","code":["YYZ"]}],"coordinates":[-79.3832,43.6532]},{"city":"vancouver","cdn":[{"name":"Cloudflare","code":["YVR"]}],"coordinates":[-123.1207,49.2827]},{"city":"washington, d.c.","cdn":[{"name":"Cloudflare","code":["IAD"]}],"coordinates":[-77.0369,38.9072]}]