[{"city":"brasilia","cdn":[{"name":"Cloudflare","code":["BSB"]}],"coordinates":[-47.8919,-15.7975]},{"city":"buenos aires","cdn":[{"name":"Cloudflare","code":["EZE"]}],"coordinates":[-58.3816,-34.6037]},{"city":"campinas","cdn":[{"name":"Cloudflare","code":["VCP"]}],"coordinates":[-47.0613,-22.9051]},{"city":"curitiba","cdn":[{"name":"Cloudflare","code":["CWB"]}],"coordinates":[-49.27,-25.4372]},{"city":"c√≥rdoba","cdn":[{"name":"Cloudflare","code":["COR"]}],"coordinates":[-64.1888,-31.4201]},{"city":"fortaleza","cdn":[{"name":"Cloudflare","code":["FOR"]}],"coordinates":[-38.527,-3.7327]},{"city":"lima","cdn":[{"name":"Cloudflare","code":["LIM"]}],"coordinates":[-77.0428,-12.0464]},{"city":"medellin","cdn":[{"name":"Cloudflare","code":["MDE"]}],"coordinates":[-75.5658,6.2476]},{"city":"quito","cdn":[{"name":"Cloudflare","code":["UIO"]}],"coordinates":[-78.4678,-0.1807]},{"city":"rio de janeiro","cdn":[{"name":"Cloudflare","code":["GIG"]}],"coordinates":[-43.1729,-22.9068]},{"city":"santiago","cdn":[{"name":"Cloudflare","code":["SCL"]}],"coordinates":[-70.6693,-33.4489]},{"city":"sao paulo","cdn":[{"name":"Cloudflare","code":["GRU"]}],"coordinates":[-46.6396,-23.5558]}]