[{"city":"Bay Area","cdn":[{"name":"Sucuri","code":["11"]}],"coordinates":[-122.4194,37.7749]},{"city":"chicago","cdn":[{"name":"Sucuri","code":["20"]}],"coordinates":[-87.6298,41.8781]},{"city":"dallas","cdn":[{"name":"Sucuri","code":["12"]}],"coordinates":[-96.797,32.7767]},{"city":"miami","cdn":[{"name":"Sucuri","code":["17"]}],"coordinates":[-80.1918,25.7617]},{"city":"washington, d.c.","cdn":[{"name":"Sucuri","code":["14"]}],"coordinates":[-77.0369,38.9072]}]