[{"city":"singapore","cdn":[{"name":"G-Core","code":["sg1","sgc"]}],"coordinates":[103.8198,1.3521],"size":15},{"city":"tokyo","cdn":[{"name":"G-Core","code":["cc1"]}],"coordinates":[139.6503,35.6762],"size":13},{"city":"hong kong","cdn":[{"name":"G-Core","code":["hk2","gnc"]}],"coordinates":[114.1694,22.3193],"size":12},{"city":"mumbai","cdn":[{"name":"G-Core","code":["ww"]}],"coordinates":[72.8777,19.076],"size":12},{"city":"seoul","cdn":[{"name":"G-Core","code":["kx"]}],"coordinates":[126.978,37.5665],"size":9},{"city":"istanbul","cdn":[{"name":"G-Core","code":["tii"]}],"coordinates":[28.9784,41.0082],"size":8},{"city":"new delhi","cdn":[{"name":"G-Core","code":["sum"]}],"coordinates":[77.209,28.6139],"size":8},{"city":"bangkok","cdn":[{"name":"G-Core","code":["tidc"]}],"coordinates":[100.5018,13.7563],"size":7},{"city":"manila","cdn":[{"name":"G-Core","code":["pns"]}],"coordinates":[120.9842,14.5995],"size":7},{"city":"tel aviv","cdn":[{"name":"G-Core","code":["bzi"]}],"coordinates":[34.7818,32.0853],"size":7},{"city":"muscat","cdn":[{"name":"G-Core","code":["omt"]}],"coordinates":[58.3829,23.588],"size":3},{"city":"hanoi","cdn":[{"name":"G-Core","code":["cmhl"]}],"coordinates":[105.8342,21.0278],"size":2},{"city":"lahore","cdn":[{"name":"G-Core","code":["eti"]}],"coordinates":[74.3587,31.5204],"size":2},{"city":"cyprus","cdn":[{"name":"G-Core","code":["cyta"]}],"coordinates":[33.4299,35.1264],"size":1},{"city":"novosibirsk","cdn":[{"name":"G-Core","code":["nx"]}],"coordinates":[82.8964,54.9833],"size":1}]