[{"city":"amsterdam","cdn":[{"name":"G-Core","code":["am3","dra4"]}],"coordinates":[4.9041,52.3676]},{"city":"bucharest","cdn":[{"name":"G-Core","code":["bu2"]}],"coordinates":[26.1025,44.4268]},{"city":"budapest","cdn":[{"name":"G-Core","code":["bix"]}],"coordinates":[19.0402,47.4979]},{"city":"frankfurt","cdn":[{"name":"G-Core","code":["fr5","drf"]}],"coordinates":[8.6821,50.1109]},{"city":"london","cdn":[{"name":"G-Core","code":["thn2","tl"]}],"coordinates":[-0.1276,51.5072]},{"city":"luxembourg","cdn":[{"name":"G-Core","code":["ed"]}],"coordinates":[6.1296,49.8153]},{"city":"madrid","cdn":[{"name":"G-Core","code":["md2","cm"]}],"coordinates":[-3.7038,40.4168]},{"city":"marseille","cdn":[{"name":"G-Core","code":["mrs2"]}],"coordinates":[5.3698,43.2965]},{"city":"milan","cdn":[{"name":"G-Core","code":["ml2"]}],"coordinates":[9.19,45.4642]},{"city":"moscow","cdn":[{"name":"G-Core","code":["m9p","m9","lx","dt"]}],"coordinates":[37.6173,55.7558]},{"city":"paris","cdn":[{"name":"G-Core","code":["pa5","tp"]}],"coordinates":[2.3522,48.8566]},{"city":"prague","cdn":[{"name":"G-Core","code":["cec"]}],"coordinates":[17.1077,48.1486]},{"city":"saint petersburg","cdn":[{"name":"G-Core","code":["k12"]}],"coordinates":[30.3609,59.9311]},{"city":"sofia","cdn":[{"name":"G-Core","code":["tsc"]}],"coordinates":[23.3219,42.6977]},{"city":"stockholm","cdn":[{"name":"G-Core","code":["sto5"]}],"coordinates":[18.0686,59.3293]},{"city":"vilnius","cdn":[{"name":"G-Core","code":["rtc"]}],"coordinates":[25.2797,54.6872]},{"city":"warsaw","cdn":[{"name":"G-Core","code":["pl1"]}],"coordinates":[21.0122,52.2297]}]