[{"city":"Bay Area","cdn":[{"name":"G-Core","code":["scl2","sv5"]}],"coordinates":[-122.4194,37.7749]},{"city":"atlanta","cdn":[{"name":"G-Core","code":["atl2"]}],"coordinates":[-84.388,33.749]},{"city":"chicago","cdn":[{"name":"G-Core","code":["ch1"]}],"coordinates":[-87.6298,41.8781]},{"city":"dallas","cdn":[{"name":"G-Core","code":["da6"]}],"coordinates":[-96.797,32.7767]},{"city":"los angeles","cdn":[{"name":"G-Core","code":["la2"]}],"coordinates":[-118.2437,34.0522]},{"city":"mexico city","cdn":[{"name":"G-Core","code":["mca"]}],"coordinates":[-99.1332,19.4326]},{"city":"miami","cdn":[{"name":"G-Core","code":["mi1","mi2"]}],"coordinates":[-80.1918,25.7617]},{"city":"new york","cdn":[{"name":"G-Core","code":["ny2"]}],"coordinates":[-74.006,40.7128]},{"city":"queretaro","cdn":[{"name":"G-Core","code":["sqr"]}],"coordinates":[-100.3899,20.5888]},{"city":"seattle","cdn":[{"name":"G-Core","code":["tse"]}],"coordinates":[-122.3321,47.6062]},{"city":"toronto","cdn":[{"name":"G-Core","code":["td2"]}],"coordinates":[-79.3832,43.6532]},{"city":"washington, d.c.","cdn":[{"name":"G-Core","code":["dc3","anx","dc11"]}],"coordinates":[-77.0369,38.9072]}]